,LGA_CODE21,LGA_NAME21,AREASQKM21,LATITUDE,LONGITUDE
0,10050,Albury,305.6386,-36.02653880441892,146.9705259144983
1,10180,Armidale Regional,7809.4406,-30.367382623584515,151.8991113259668
2,10250,Ballina,484.9692,-28.85287486006754,153.48615711247285
3,10300,Balranald,21690.7493,-33.95033966688613,143.61162395830203
4,10470,Bathurst Regional,3817.8645,-33.430126013645044,149.52563941178136
5,10500,Bayside (NSW),50.6204,-33.949515669894126,151.16712041451075
6,10550,Bega Valley,6278.5013,-36.82590196120465,149.7175933505947
7,10600,Bellingen,1600.4338,-30.403789777434696,152.72859634540401
8,10650,Berrigan,2065.8878,-35.734312626617545,145.71118028015695
9,10750,Blacktown,238.8471,-33.74093136152887,150.86409340585945
10,10800,Bland,8557.6536,-33.894330760361626,146.9612732780158
11,10850,Blayney,1524.647,-33.59431751235993,149.14206456412654
12,10900,Blue Mountains,1431.1442,-33.697531609858366,150.41114678475608
13,10950,Bogan,14599.8996,-31.538115990331672,146.86687907141285
14,11150,Bourke,41598.3722,-29.91058062123279,145.35681292906236
15,11200,Brewarrina,19162.0296,-29.791589585301285,146.96088373616126
16,11250,Broken Hill,170.1153,-31.944022303388085,141.4792749366148
17,11300,Burwood,7.1282,-33.88367352965525,151.10315744934755
18,11350,Byron,565.8027,-28.604154097757544,153.48251108665036
19,11400,Cabonne,6022.3496,-33.15298480856995,148.754106870388
20,11450,Camden,201.5278,-34.00883082672776,150.72419936021015
21,11500,Campbelltown (NSW),311.4117,-34.08341200657833,150.84586321998893
22,11520,Canada Bay,19.9239,-33.853485275033414,151.11483084730395
23,11570,Canterbury-Bankstown,110.2374,-33.92349501679087,151.0373257280851
24,11600,Carrathool,18934.4853,-33.608979657096945,145.49643135896565
25,11650,Central Coast (NSW),1681.0059,-33.30797388065274,151.28548829662802
26,11700,Central Darling,53492.193,-31.85068475884347,143.58969838225312
27,11720,Cessnock,1965.1593,-32.925055455013535,151.22490546813526
28,11730,Clarence Valley,10428.6804,-29.681725515694385,152.75115777706608
29,11750,Cobar,45575.3512,-31.867968183772376,145.4828567694743
30,11800,Coffs Harbour,1173.7435,-30.189026103639147,153.0398402465171
31,12000,Coolamon,2430.9037,-34.632518519038825,147.10483883357782
32,12150,Coonamble,9916.0535,-30.87053564848261,148.29161324862213
33,12160,Cootamundra-Gundagai Regional,3981.4172,-34.852962186072396,148.09412534231163
34,12350,Cowra,2808.7821,-33.79637040261511,148.71795613117516
35,12380,Cumberland,72.7496,-33.84213682892982,150.98646528562347
36,12390,Dubbo Regional,7534.5251,-32.424703748807346,148.85441677724688
37,12700,Dungog,2249.9983,-32.34954786293114,151.60829288441542
38,12730,Edward River,8883.4463,-35.172531265143796,144.94147813512998
39,12750,Eurobodalla,3428.1695,-35.9451437236788,149.9470547337783
40,12850,Fairfield,101.5072,-33.865621699769164,150.89542221807775
41,12870,Federation,5684.9253,-35.49704283878335,146.27137211641215
42,12900,Forbes,4710.128,-33.421618711981914,147.86720794143736
43,12930,Georges River,38.3375,-33.97101883503972,151.08636364868647
44,12950,Gilgandra,4831.5057,-31.61901370114243,148.69074002718668
45,13010,Glen Innes Severn,5479.977,-29.644973753301205,151.9030483379773
46,13310,Goulburn Mulwaree,3220.0796,-34.87602675695074,149.81349691781995
47,13340,Greater Hume Shire,5749.3875,-35.75025981487827,147.17183504031757
48,13450,Griffith,1639.1732,-34.30039735470649,146.0035940377669
49,13550,Gunnedah,4987.0295,-31.046532884518708,150.1888955933682
50,13660,Gwydir,9259.6544,-29.593468272674194,150.5168155241053
51,13800,Hawkesbury,2775.1378,-33.33476611712355,150.7732475466966
52,13850,Hay,11325.9324,-34.31584890036199,144.6837063255643
53,13910,Hilltops,7140.8865,-34.35199699107697,148.50096323475128
54,14000,Hornsby,455.0374,-33.58391774521445,151.08941968499965
55,14100,Hunters Hill,5.7169,-33.833339147830976,151.14513441487438
56,14170,Inner West,35.2115,-33.891321934281905,151.1549153515687
57,14220,Inverell,9404.7564,-29.41883717233053,151.0751813571602
58,14300,Junee,2030.0222,-34.81719376300848,147.66888249166522
59,14350,Kempsey,3375.6704,-30.95153403037532,152.6447387480195
60,14400,Kiama,257.6638,-34.67885793240436,150.75622964353823
61,14500,Ku-ring-gai,85.4093,-33.73459751443234,151.15091372268304
62,14550,Kyogle,3584.1829,-28.617781140851413,152.77558182656412
63,14600,Lachlan,14968.2539,-32.92009535417166,146.98971404194174
64,14650,Lake Macquarie,648.6393,-33.038844438998915,151.53018756077742
65,14700,Lane Cove,10.4789,-33.81998082406331,151.166900763523
66,14750,Leeton,1167.1876,-34.53235693091234,146.30208843364784
67,14850,Lismore,1287.7042,-28.75616217951886,153.27066135655815
68,14870,Lithgow,4512.2561,-33.2776619646693,150.1789617311309
69,14900,Liverpool,305.7401,-33.93595833558214,150.82521251843556
70,14920,Liverpool Plains,5082.2398,-31.55060702437997,150.4384220192372
71,14950,Lockhart,2895.8049,-35.33125992992933,146.77544395478515
72,15050,Maitland,391.5089,-32.710801082213706,151.5497612147828
73,15240,Mid-Coast,10053.8633,-32.015303179847095,152.0957633528542
74,15270,Mid-Western Regional,8752.2589,-32.593797742149654,149.7424263329392
75,15300,Moree Plains,17902.7033,-29.25301140244424,149.62885600755303
76,15350,Mosman,8.6503,-33.829069021969566,151.24464055453282
77,15520,Murray River,11863.0162,-35.32469775880873,144.21164743636035
78,15560,Murrumbidgee,6880.7902,-34.949721323743105,145.7293707391761
79,15650,Muswellbrook,3404.8841,-32.4399116581651,150.63030150975345
80,15700,Nambucca Valley,1491.3431,-30.687544092544243,152.76894355581297
81,15750,Narrabri,13014.9937,-30.35647853388599,149.56489007620755
82,15800,Narrandera,4116.3458,-34.61124649311803,146.5796881996682
83,15850,Narromine,5261.5165,-32.22607614987848,148.0655610624565
84,15900,Newcastle,186.7255,-32.880044217077874,151.6956984178856
85,15950,North Sydney,10.491,-33.832944064709416,151.21186883807397
86,15990,Northern Beaches,254.2072,-33.69022403970135,151.2496757835285
87,16100,Oberon,3625.047,-33.883278601233464,149.8114064125972
88,16150,Orange,284.2159,-33.32464865126684,149.12037951543817
89,16200,Parkes,5957.6137,-32.88099839901493,147.9614288066049
90,16260,Parramatta,83.8303,-33.79933045022632,151.029312634136
91,16350,Penrith,404.7021,-33.76535956475546,150.71807605332248
92,16380,Port Macquarie-Hastings,3682.3915,-31.40974789964874,152.53121651101233
93,16400,Port Stephens,858.4357,-32.72178252627042,151.84472761752184
94,16490,Queanbeyan-Palerang Regional,5319.0075,-35.42274179942496,149.62717658590793
95,16550,Randwick,36.331,-33.94322625076733,151.2402149417446
96,16610,Richmond Valley,3047.3748,-29.05961478763073,153.04628738411833
97,16700,Ryde,40.4746,-33.7991260867271,151.11056779315552
98,16900,Shellharbour,147.4208,-34.58267962131471,150.77387386639867
99,16950,Shoalhaven,4567.2011,-35.0944139665499,150.3733166930861
100,17000,Singleton,4892.7168,-32.660365769716826,150.9645386656682
101,17040,Snowy Monaro Regional,15164.7904,-36.39646234881955,148.95887383544405
102,17080,Snowy Valleys,8958.9215,-35.733772047454366,148.24920421388737
103,17100,Strathfield,14.0008,-33.88041304649226,151.07644258204192
104,17150,Sutherland Shire,333.5806,-34.075127591475336,151.05101573476836
105,17200,Sydney,26.6762,-33.889442389936754,151.2027614840332
106,17310,Tamworth Regional,9884.3505,-30.89250423178542,150.90706394597694
107,17350,Temora,2802.0159,-34.387926588976285,147.48366224619824
108,17400,Tenterfield,7324.3072,-28.943810604934864,152.08639569287996
109,17420,The Hills Shire,386.1583,-33.588247834742425,150.96203959079307
110,17550,Tweed,1307.7853,-28.359970611373825,153.3562969942305
111,17620,Upper Hunter Shire,8096.0889,-31.969242530088152,150.72652708950574
112,17640,Upper Lachlan Shire,7127.3957,-34.41770949129079,149.45567514121305
113,17650,Uralla,3226.5327,-30.50766289639287,151.3123350222083
114,17750,Wagga Wagga,4824.4888,-35.19660367964852,147.36635675648552
115,17850,Walcha,6261.0243,-31.163889344236164,151.78453438527623
116,17900,Walgett,22308.2528,-29.816664884909788,148.194459455033
117,17950,Warren,10753.7672,-31.325639817706236,147.6798502071593
118,18020,Warrumbungle Shire,12372.12,-31.462793948432914,149.40539851017576
119,18050,Waverley,9.3506,-33.890038273092365,151.26685147311323
120,18100,Weddin,3414.8566,-33.87190035957245,148.01124919954114
121,18200,Wentworth,26255.9338,-33.57019715184354,142.2428975114602
122,18250,Willoughby,22.4257,-33.801085715106645,151.19637598553714
123,18350,Wingecarribee,2689.3415,-34.47692413686195,150.35626456292383
124,18400,Wollondilly,2555.4341,-34.10192822144222,150.44380064347186
125,18450,Wollongong,684.3076,-34.36883816924149,150.83714578479893
126,18500,Woollahra,12.2584,-33.87168279237287,151.25739737765593
127,18710,Yass Valley,3995.017,-34.954167553575985,148.88499400840752
128,19399,Unincorporated NSW,93208.9194,-30.65452347849223,142.21579407928073
129,19499,No usual address (NSW),0.0,0.0,0.0
130,19799,Migratory - Offshore - Shipping (NSW),0.0,0.0,0.0
131,20110,Alpine,4788.157,-36.853555839557345,146.97417730807172
132,20260,Ararat,4211.1172,-37.472695765387066,142.8431972695711
133,20570,Ballarat,739.0321,-37.49284031560874,143.78147682479025
134,20660,Banyule,62.5402,-37.7304278195291,145.0851467940733
135,20740,Bass Coast,865.8094,-38.507275500023276,145.5580614109048
136,20830,Baw Baw,4027.6287,-37.98398604639274,146.13150842041037
137,20910,Bayside (Vic.),37.2111,-37.941825905441554,145.0181598603199
138,21010,Benalla,2352.6398,-36.58698987048147,146.0237674772728
139,21110,Boroondara,60.1776,-37.81927311411663,145.0630950452066
140,21180,Brimbank,123.3991,-37.747539768796294,144.80331666945415
141,21270,Buloke,7998.247,-35.9124379812523,143.00485054300543
142,21370,Campaspe,4519.073,-36.34516564481898,144.71641877438174
143,21450,Cardinia,1282.5671,-38.08300066943651,145.57269112292934
144,21610,Casey,409.4287,-38.104337028327606,145.30901679316483
145,21670,Central Goldfields,1532.7843,-37.007149210351315,143.71384688398805
146,21750,Colac Otway,3437.47,-38.451947663723516,143.59518787847986
147,21830,Corangamite,4407.492,-38.20431003533518,143.19865740551398
148,21890,Darebin,53.4712,-37.73344545296745,145.01433908040192
149,22110,East Gippsland,20939.5016,-37.37802550425775,148.29169479753824
150,22170,Frankston,129.5981,-38.134595049557674,145.1738046758298
151,22250,Gannawarra,3737.5979,-35.751520381848245,143.80397696706655
152,22310,Glen Eira,38.6908,-37.901192668928346,145.04260846342464
153,22410,Glenelg,6218.7884,-37.87048376873872,141.38572038145415
154,22490,Golden Plains,2703.3899,-37.882051982013074,143.84251718051175
155,22620,Greater Bendigo,2999.9717,-36.73442797624123,144.42265202449542
156,22670,Greater Dandenong,129.5466,-38.00557618600499,145.19001498693441
157,22750,Greater Geelong,1247.9872,-38.068945467103084,144.41716837980718
158,22830,Greater Shepparton,2421.9092,-36.39698139729883,145.38620514866415
159,22910,Hepburn,1472.9843,-37.31692382770933,144.05756664378748
160,22980,Hindmarsh,7524.1823,-36.05150462138313,141.75256079770003
161,23110,Hobsons Bay,64.2405,-37.854707451306034,144.82976362611038
162,23190,Horsham,4266.769,-36.82573189071048,142.0904566277035
163,23270,Hume,503.8488,-37.58916906334317,144.82454025674912
164,23350,Indigo,2040.471,-36.22550505767535,146.7229555808545
165,23430,Kingston (Vic.),91.3676,-37.988570381209975,145.10507817251985
166,23670,Knox,113.9114,-37.88896910923942,145.25867555598305
167,23810,Latrobe (Vic.),1425.613,-38.274551492972826,146.43814071994802
168,23940,Loddon,6696.4447,-36.363892116579045,143.86714855686387
169,24130,Macedon Ranges,1748.284,-37.33565453572085,144.61661964585284
170,24210,Manningham,113.3479,-37.76157719885159,145.18856671982763
171,24250,Mansfield,3843.8535,-37.20041398319294,146.2068415288026
172,24330,Maribyrnong,31.2258,-37.795254242748335,144.87777823910906
173,24410,Maroondah,61.4097,-37.80485917462079,145.26526733049667
174,24600,Melbourne,37.5452,-37.81064089432689,144.94377212096697
175,24650,Melton,527.5374,-37.692992444920726,144.62598782066712
176,24780,Mildura,22081.9206,-34.8692177753551,141.68288322027712
177,24850,Mitchell,2862.0837,-37.13751729079375,145.00161116282268
178,24900,Moira,4045.9201,-36.061892720753676,145.55035923637624
179,24970,Monash,81.4829,-37.89712832195203,145.144039360757
180,25060,Moonee Valley,43.1384,-37.74948675687318,144.89576762235933
181,25150,Moorabool,2110.5504,-37.63276192180822,144.21565645393525
182,25250,Moreland,50.9522,-37.72990539369868,144.94889394371697
183,25340,Mornington Peninsula,723.992,-38.34167720053058,145.03529507454172
184,25430,Mount Alexander,1529.6183,-37.050777025468484,144.1929428452309
185,25490,Moyne,5481.686,-38.12244096804266,142.49004200831953
186,25620,Murrindindi,3879.7505,-37.31096792010989,145.63011122589467
187,25710,Nillumbik,432.3373,-37.62290148353157,145.23681025554038
188,25810,Northern Grampians,5729.8765,-36.844615698748115,142.91964937738874
189,25900,Port Phillip,20.6141,-37.851895688858626,144.96602818911785
190,25990,Pyrenees,3434.5687,-37.31644466813963,143.3750473449153
191,26080,Queenscliffe,8.6166,-38.26426711616422,144.6477213405367
192,26170,South Gippsland,3296.3307,-38.62136402315842,146.07599753103213
193,26260,Southern Grampians,6654.0186,-37.53651999315194,142.03310044731379
194,26350,Stonnington,25.651,-37.857941671732945,145.033662825705
195,26430,Strathbogie,3303.2568,-36.76031830915428,145.4349234778788
196,26490,Surf Coast,1552.944,-38.31228857230335,144.05312809600287
197,26610,Swan Hill,6115.5373,-35.12019035424135,143.1254814449288
198,26670,Towong,6675.1725,-36.354421292131285,147.59885849022834
199,26700,Wangaratta,3645.1096,-36.58825585081767,146.42839128789257
200,26730,Warrnambool,120.9487,-38.37143053697708,142.51182018882716
201,26810,Wellington,10817.4231,-37.89433871830871,146.91935880624496
202,26890,West Wimmera,9108.6794,-36.67556247928258,141.2793538022718
203,26980,Whitehorse,64.2801,-37.83023535905878,145.15506581632744
204,27070,Whittlesea,489.6938,-37.54719933184962,145.07769860319686
205,27170,Wodonga,433.0021,-36.15049053298884,146.88261581623775
206,27260,Wyndham,542.0943,-37.886633815355964,144.6182583721413
207,27350,Yarra,19.5421,-37.80226765943099,144.99855448623887
208,27450,Yarra Ranges,2468.2052,-37.714263256078446,145.69704243245013
209,27630,Yarriambiack,7325.797,-35.99005082070426,142.41901577281598
210,29399,Unincorporated Vic,283.1903,-37.89936603640546,145.89236879598576
211,29499,No usual address (Vic.),0.0,0.0,0.0
212,29799,Migratory - Offshore - Shipping (Vic.),0.0,0.0,0.0
213,30250,Aurukun,7423.9891,-13.609363408495257,141.82845473190068
214,30300,Balonne,31104.0851,-28.315906322362547,148.11615269172344
215,30370,Banana,28550.1626,-24.93515404348315,149.93871015419788
216,30410,Barcaldine,53382.654,-23.113673818830332,145.69342808346588
217,30450,Barcoo,61830.1679,-25.13105769417565,142.2674676343853
218,30760,Blackall Tambo,30537.248,-24.78561714410623,145.7912629203949
219,30900,Boulia,60906.4695,-22.480432532176206,139.2464472036322
220,31000,Brisbane,1342.7173,-27.437828441903026,153.0390093293546
221,31750,Bulloo,73722.0101,-28.021280379586063,142.59485907033488
222,31820,Bundaberg,6431.0889,-24.9678031381682,152.03577330079733
223,31900,Burdekin,5043.9318,-19.82356963935566,147.24311277677225
224,31950,Burke,39681.2234,-18.03136328705137,138.94775986634914
225,32080,Cairns,1689.3227,-17.160145527013643,145.81900858743003
226,32250,Carpentaria,64121.0123,-17.444383585928875,141.36475387536512
227,32260,Cassowary Coast,4687.824,-17.959538148347725,145.9259799798393
228,32270,Central Highlands (Qld),59834.8359,-24.031443958733423,148.41581888300965
229,32310,Charters Towers,68382.1644,-20.148849428487594,145.7882103755524
230,32330,Cherbourg,31.6002,-26.288795873847462,151.93599932367368
231,32450,Cloncurry,47971.2595,-20.817690902822317,140.26477045025447
232,32500,Cook,105717.7521,-14.23595570937671,143.25967054853427
233,32600,Croydon,29497.9025,-18.554086113188134,142.21680897371297
234,32750,Diamantina,94722.429,-24.630248432092824,139.73198957258978
235,32770,Doomadgee,1827.6518,-17.59651504705211,138.78096134697137
236,32810,Douglas,2427.8626,-16.22202752034613,145.28670457310125
237,33100,Etheridge,39199.2956,-18.50460758583595,143.66041285056002
238,33200,Flinders (Qld),41199.9375,-20.973866909980032,144.32173490234823
239,33220,Fraser Coast,7104.5984,-25.527889195092108,152.6767377724513
240,33360,Gladstone,10484.2861,-24.17631045147915,151.30703742528598
241,33430,Gold Coast,1333.386,-27.980488664622314,153.31847696281974
242,33610,Goondiwindi,19265.7098,-28.37367139066373,150.33989992973838
243,33620,Gympie,6883.9781,-26.147024863619674,152.46364141299543
244,33800,Hinchinbrook,2807.1889,-18.661881738460742,146.04761638815336
245,33830,Hope Vale,1111.7099,-15.167737075697906,145.19157429921526
246,33960,Ipswich,1093.8562,-27.66560288714105,152.6674686694407
247,33980,Isaac,58707.9192,-22.238088523833063,147.89185876662012
248,34420,Kowanyama,2555.3325,-15.319514330315553,141.81057160037568
249,34530,Livingstone,11757.8686,-22.79597139490119,150.19348123472685
250,34570,Lockhart River,3576.6839,-13.005328153311712,143.24029949711
251,34580,Lockyer Valley,2269.0054,-27.642717232316354,152.2405582620599
252,34590,Logan,958.1333,-27.762383534312317,153.04021302345805
253,34710,Longreach,40572.2442,-23.718120577200107,143.95932639038926
254,34770,Mackay,7613.2963,-21.139078868539045,148.80425007944743
255,34800,McKinlay,40736.7989,-20.533984091534183,141.58697204807027
256,34830,Mapoon,537.2366,-12.14170326856245,141.9198069417827
257,34860,Maranoa,58719.3449,-26.54427082166779,148.2876988765731
258,34880,Mareeba,53491.0502,-16.984723769639942,143.95517928863168
259,35010,Moreton Bay,2041.4737,-27.11798048655317,152.8831261925374
260,35250,Mornington,1247.6932,-16.63181963024153,139.40132008140895
261,35300,Mount Isa,43715.1975,-19.953894352892263,138.7822312942447
262,35600,Murweh,40699.7586,-26.189666431075853,146.48948305456608
263,35670,Napranum,2004.3468,-12.515754393261304,142.11244800226805
264,35740,Noosa,869.8657,-26.32484164190283,152.94558215385172
265,35760,North Burnett,19669.8489,-25.355270827783794,151.2041732774365
266,35780,Northern Peninsula Area,1052.0676,-11.004902654834275,142.3128984833484
267,35790,Palm Island,71.9928,-18.731347742479805,146.60025989920732
268,35800,Paroo,47614.9225,-28.072954410450762,145.77131795818468
269,36070,Pormpuraaw,4395.3654,-14.719393148935437,141.8074055990249
270,36150,Quilpie,67414.6563,-26.34881660829753,143.89344555145578
271,36250,Redland,537.1672,-27.56858596832113,153.36084893105382
272,36300,Richmond,26580.748,-20.54064203541295,142.90106454608713
273,36370,Rockhampton,6570.2667,-23.44113073484028,150.21842743371585
274,36510,Scenic Rim,4243.0014,-28.062327030761228,152.796212828746
275,36580,Somerset,5373.4335,-27.008923983246444,152.42521947307324
276,36630,South Burnett,8381.558,-26.405208146121026,151.6469318903338
277,36660,Southern Downs,7106.436,-28.405432283265224,151.88579938305125
278,36720,Sunshine Coast,2253.8522,-26.696168843330373,152.89835804912084
279,36820,Tablelands,11292.8695,-17.93077945753783,145.3305417509345
280,36910,Toowoomba,12957.2103,-27.58197961048954,151.53389912440804
281,36950,Torres,883.7402,-10.73114804347378,142.4122843999592
282,36960,Torres Strait Island,490.0453,-9.859100398662738,142.3656044127579
283,37010,Townsville,3730.8199,-19.390819930240088,146.7116773109204
284,37300,Weipa,10.4643,-12.639629053562047,141.8797780858366
285,37310,Western Downs,37922.5007,-26.841763076642756,150.3476620662596
286,37340,Whitsunday,23818.9729,-20.700926671643572,147.72470766291818
287,37400,Winton,53813.4826,-22.5391313254253,142.4245054003335
288,37550,Woorabinda,390.5578,-23.943938506675558,149.52555227378295
289,37570,Wujal Wujal,11.842,-15.96828994913581,145.31320003729914
290,37600,Yarrabah,158.8381,-16.99452621774924,145.8971672112348
291,39499,No usual address (Qld),0.0,0.0,0.0
292,39799,Migratory - Offshore - Shipping (Qld),0.0,0.0,0.0
293,40070,Adelaide,15.5733,-34.92196944289847,138.59891984704873
294,40120,Adelaide Hills,794.4957,-34.892810231629454,138.83623643905867
295,40150,Adelaide Plains,932.4913,-34.48060854092121,138.45468432078636
296,40220,Alexandrina,1826.8067,-35.351900453979255,138.8783591773237
297,40250,Anangu Pitjantjatjara Yunkunytjatjara,102348.117,-27.07760647041331,131.2057359738367
298,40310,Barossa,893.5424,-34.621050849570594,139.00168962278238
299,40430,Barunga West,1590.3887,-33.79895351351076,137.95634404910078
300,40520,Berri Barmera,476.1962,-34.2658409610218,140.48891269883953
301,40700,Burnside,27.5183,-34.93996283001837,138.65987442678647
302,40910,Campbelltown (SA),24.3485,-34.88371228717562,138.6822408787048
303,41010,Ceduna,5420.3435,-32.10209800321949,133.87242839379047
304,41060,Charles Sturt,54.7876,-34.890351561725765,138.52361833338853
305,41140,Clare and Gilbert Valleys,1892.4466,-34.003956597819865,138.7359767434934
306,41190,Cleve,5018.8483,-33.650296058505326,136.28475806606696
307,41330,Coober Pedy,77.6795,-29.015844854572514,134.7523610018028
308,41560,Copper Coast,772.9149,-33.98337913576839,137.7289658069204
309,41750,Elliston,6741.9317,-33.56153950156705,135.34461518615643
310,41830,Flinders Ranges,4070.4827,-32.07561036312965,138.30119816307416
311,41960,Franklin Harbour,2755.5639,-33.53428955685613,136.96441541996043
312,42030,Gawler,41.1379,-34.62211328049179,138.72988924670474
313,42110,Goyder,6715.1418,-33.64595766024992,139.0740824286745
314,42250,Grant,1897.8235,-37.84608573299824,140.72475080993888
315,42600,Holdfast Bay,13.752,-35.001130475021306,138.5213172213585
316,42750,Kangaroo Island,4400.863,-35.82780575949277,137.2397769533318
317,43080,Karoonda East Murray,4415.796,-34.950491518497934,140.02010194737957
318,43220,Kimba,5697.1074,-33.00267968691732,136.1438070400749
319,43360,Kingston (SA),3339.7952,-36.64350229176094,140.0255164600412
320,43650,Light,1276.8453,-34.41109206848037,138.84650151994342
321,43710,Lower Eyre Peninsula,4721.3922,-34.4124432538311,135.5970862471585
322,43790,Loxton Waikerie,7763.8714,-34.50821533798856,140.35162784881257
323,44000,Maralinga Tjarutja,105766.3105,-29.34982767184525,130.96247357929377
324,44060,Marion,55.6406,-35.03246949662176,138.5397035220589
325,44210,Mid Murray,6271.6255,-34.45020730135834,139.46139412189623
326,44340,Mitcham,75.5468,-35.00386214294485,138.62175729069813
327,44550,Mount Barker,594.6406,-35.08579581036662,138.87501155134444
328,44620,Mount Gambier,33.8938,-37.82533180747716,140.78168909998777
329,44830,Mount Remarkable,3422.7733,-32.75827088020905,138.205120277571
330,45040,Murray Bridge,1831.7597,-35.15930508245536,139.3017901193365
331,45090,Naracoorte Lucindale,4519.715,-36.97726086268775,140.54732231681749
332,45120,Northern Areas,2986.1818,-33.28639552015022,138.51142704866902
333,45290,Norwood Payneham and St Peters,15.1036,-34.90756033251729,138.63645687756468
334,45340,Onkaparinga,518.1255,-35.17867451777355,138.56885982366026
335,45400,Orroroo Carrieton,3321.8239,-32.52075544316805,138.6393611756938
336,45540,Peterborough,3020.142,-32.86410899221409,139.0596484419013
337,45680,Playford,345.2038,-34.688875754557145,138.66297382571307
338,45890,Port Adelaide Enfield,91.7588,-34.840698472422794,138.56151491867823
339,46090,Port Augusta,1157.9905,-32.59112320355966,137.75117807412747
340,46300,Port Lincoln,30.3681,-34.72920757784514,135.85113613898235
341,46450,Port Pirie,1760.7097,-33.37682875541712,138.10593975588247
342,46510,Prospect,7.7915,-34.88398354197489,138.59794305137146
343,46670,Renmark Paringa,916.442,-34.18226093388315,140.81412161839557
344,46860,Robe,1091.7162,-37.187670748625074,139.97944930031673
345,46970,Roxby Downs,110.4778,-30.55437219779593,136.8811863785334
346,47140,Salisbury,159.8432,-34.772645447704484,138.6113065642654
347,47290,Southern Mallee,5702.2024,-35.39390718298828,140.5743585022692
348,47490,Streaky Bay,6222.8591,-32.708903362434775,134.56403650358254
349,47630,Tatiara,6527.2342,-36.227907918677175,140.58444898644106
350,47700,Tea Tree Gully,95.2109,-34.805148075253875,138.71804817693635
351,47800,Coorong,8833.4339,-35.71379474359277,139.7613185222922
352,47910,Tumby Bay,2669.0794,-34.179320386476014,136.01970546625608
353,47980,Unley,14.2703,-34.95478367018585,138.60403953213532
354,48050,Victor Harbor,384.6255,-35.51277636111967,138.54616868318982
355,48130,Wakefield,3468.4879,-33.99143179688363,138.3565122913061
356,48260,Walkerville,3.53,-34.89277229735106,138.61711672380062
357,48340,Wattle Range,3926.2101,-37.470397066600995,140.51887052045367
358,48410,West Torrens,37.0886,-34.941417506760885,138.54381934904282
359,48540,Whyalla,1071.3397,-33.03730553842888,137.49434437881771
360,48640,Wudinna,5075.2783,-33.028650432989245,135.31464624029746
361,48750,Yankalilla,751.2577,-35.518578729546924,138.3371004199718
362,48830,Yorke Peninsula,5899.6397,-34.683697729830385,137.55994974025998
363,49399,Unincorporated SA,619426.0858,-29.588027302834618,136.77458976483598
364,49499,No usual address (SA),0.0,0.0,0.0
365,49799,Migratory - Offshore - Shipping (SA),0.0,0.0,0.0
366,50080,Albany,4308.458,-34.73911807524469,118.18258486165287
367,50210,Armadale,559.5258,-32.16751856592005,116.13698877281749
368,50250,Ashburton,100817.3112,-22.493635832760077,116.72625502763186
369,50280,Augusta Margaret River,2122.375,-34.03086387956695,115.22780148898498
370,50350,Bassendean,10.3449,-31.90383413454006,115.94523177650142
371,50420,Bayswater,34.6169,-31.903775519904503,115.90782772007942
372,50490,Belmont,39.8246,-31.956220266235576,115.9483284837597
373,50560,Beverley,2370.5195,-32.174651047126,116.79658985588355
374,50630,Boddington,1904.4791,-32.81628288150162,116.39990081559444
375,50770,Boyup Brook,2826.4585,-33.89175425039253,116.52404091465309
376,50840,Bridgetown-Greenbushes,1337.361,-34.00376754922717,116.1910008897728
377,50910,Brookton,1601.1532,-32.361981873104924,117.00309972981123
378,50980,Broome,54401.8236,-18.67020478159551,122.46368892200837
379,51080,Broomehill-Tambellup,2609.6612,-34.002496382968786,117.66132913891086
380,51120,Bruce Rock,2724.6944,-31.952576042260315,118.02864036867645
381,51190,Bunbury,65.4163,-33.35163318579678,115.66440487027661
382,51260,Busselton,1454.0509,-33.718430654085,115.34887074138373
383,51310,Cambridge,21.9555,-31.936265265686373,115.7864100719872
384,51330,Canning,64.8791,-32.03688122766117,115.9163616957601
385,51400,Capel,557.8983,-33.53233721994662,115.6357306843579
386,51470,Carnamah,2870.9316,-29.773209880734314,115.57784151799507
387,51540,Carnarvon,46574.705,-24.349951480942966,114.39103746253797
388,51610,Chapman Valley,3981.3333,-28.322363495477315,115.0591367138661
389,51680,Chittering,1219.9032,-31.374381310398892,116.07834679875916
390,51710,Christmas Island,136.1356,-10.485342775485524,105.63648036030459
391,51750,Claremont,4.9554,-31.98013571573657,115.77998676859264
392,51820,Cockburn,167.9415,-32.11426740809212,115.79290192306192
393,51860,Cocos Islands,13.7258,-12.134567395416074,96.86227327115024
394,51890,Collie,1709.815,-33.28354137825791,116.21157684616163
395,51960,Coolgardie,30297.6977,-31.186771807558742,120.9644728935263
396,52030,Coorow,4189.8721,-30.02160290821697,115.7592260500357
397,52100,Corrigin,2681.271,-32.35835324171995,117.79903966800691
398,52170,Cottesloe,3.8564,-31.993989848179247,115.75850680483568
399,52240,Cranbrook,3276.0464,-34.31480506913661,117.28588337110239
400,52310,Cuballing,1195.3369,-32.73539595273089,117.15918470649693
401,52380,Cue,13582.1956,-27.310807130946465,117.94005093010244
402,52450,Cunderdin,1862.4457,-31.599567971922948,117.15573030647165
403,52520,Dalwallinu,7224.3566,-30.125233328555677,116.94476474979423
404,52590,Dandaragan,6711.5721,-30.539600310138344,115.50608064057789
405,52660,Dardanup,525.8017,-33.41541160099368,115.85192552573118
406,52730,Denmark,1859.8487,-34.89047114273524,117.1188389430638
407,52800,Derby-West Kimberley,119730.9696,-17.791042738127725,124.97751708522998
408,52870,Donnybrook-Balingup,1559.856,-33.66953967527985,115.97354886721907
409,52940,Dowerin,1863.0851,-31.10764288617915,117.11127863712197
410,53010,Dumbleyung,2539.2249,-33.224487959909865,117.96453791568203
411,53080,Dundas,92886.3668,-32.011315045631996,124.41795311837626
412,53150,East Fremantle,3.1384,-32.03792684169169,115.76817815483369
413,53220,East Pilbara,372295.6721,-21.76844888948409,123.59649670989414
414,53290,Esperance,44797.5456,-33.22195889651316,122.25029128818427
415,53360,Exmouth,6488.2097,-22.521676702512536,114.16702147110625
416,53430,Fremantle,19.2892,-32.05742523428342,115.76613755017827
417,53570,Gingin,3208.3585,-31.191566614987877,115.69918473685773
418,53640,Gnowangerup,4265.0423,-34.06212170137631,118.28875253290803
419,53710,Goomalling,1835.4294,-31.242827547472764,116.78475829545563
420,53780,Gosnells,127.2976,-32.06621838309777,115.99214747407963
421,53800,Greater Geraldton,9909.0002,-28.561534481148907,115.4971589873486
422,53920,Halls Creek,133045.9733,-19.258097461092248,127.61680439877662
423,53990,Harvey,1727.607,-33.10109142106716,115.91250634132577
424,54060,Irwin,2369.3298,-29.326028619557114,115.09182192056159
425,54130,Jerramungup,6511.1803,-34.0705825779615,119.1011887608596
426,54170,Joondalup,98.942,-31.78348465464307,115.76670948087495
427,54200,Kalamunda,324.2958,-32.01223166654362,116.1227741255727
428,54280,Kalgoorlie-Boulder,95500.292,-30.749408175133716,125.05132900983307
429,54310,Karratha,15238.2934,-21.049283723747287,117.03601272632233
430,54340,Katanning,1518.1854,-33.64828696501427,117.6842268641296
431,54410,Kellerberrin,1915.433,-31.58233234911254,117.8145362347277
432,54480,Kent,5624.5818,-33.55081583108889,118.57224593168415
433,54550,Kojonup,2930.9925,-33.90762314441267,117.0480225122296
434,54620,Kondinin,7440.8016,-32.427303586581964,119.18480943783253
435,54690,Koorda,2832.313,-30.59047808278671,117.42547181579346
436,54760,Kulin,4718.9219,-32.717506600112536,118.57611653016339
437,54830,Kwinana,120.0123,-32.22767681294198,115.82867276797984
438,54900,Lake Grace,11886.3198,-33.05988360745853,119.28753871288417
439,54970,Laverton,179993.971,-27.891100716349552,125.40167415237711
440,55040,Leonora,31915.0562,-28.212314277286453,121.1453758312089
441,55110,Mandurah,174.8968,-32.63378256783841,115.68293480824796
442,55180,Manjimup,7029.6076,-34.55712676501327,116.32568898212419
443,55250,Meekatharra,100188.5478,-25.1400967828243,118.86402263604059
444,55320,Melville,52.8505,-32.04743321877322,115.82939887206943
445,55390,Menzies,124115.424,-29.575095470565085,123.97110701328016
446,55460,Merredin,3293.7824,-31.515314232906835,118.35935912377417
447,55530,Mingenew,1934.8857,-29.158185767286525,115.48425989734162
448,55600,Moora,3763.0254,-30.498044772388884,116.18545433013782
449,55670,Morawa,3510.5929,-29.06690606768056,116.01709776023097
450,55740,Mosman Park,4.3472,-32.014791000368554,115.76555645737983
451,55810,Mount Magnet,13858.1182,-28.238052082566146,117.97641855994804
452,55880,Mount Marshall,10184.5937,-30.183752647836304,117.96218800809856
453,55950,Mukinbudin,3426.944,-30.629940015405616,118.31114605998332
454,56090,Mundaring,643.2012,-31.89992338526172,116.25164221179102
455,56160,Murchison,45046.0922,-26.75183302867848,116.29976431656296
456,56230,Murray,1703.4688,-32.62364926369339,115.98944232161787
457,56300,Nannup,3053.9361,-34.128422489507486,115.66390703982583
458,56370,Narembeen,3809.0285,-32.04710219004396,118.65385853449692
459,56460,Narrogin,1631.3024,-32.99536465921813,117.26226001774998
460,56580,Nedlands,19.6449,-31.972436172901585,115.78958828049483
461,56620,Ngaanyatjarraku,159815.9632,-25.09485756339644,126.835294969562
462,56730,Northam,1431.2215,-31.685933893650734,116.63600663241972
463,56790,Northampton,12543.7142,-27.753066149932472,114.64592424510911
464,56860,Nungarin,1166.0245,-31.149380331005244,118.20809846052177
465,56930,Peppermint Grove,1.0677,-31.99931982010277,115.76715345058189
466,57000,Perenjori,8301.3551,-29.44392715144534,116.61142659732653
467,57080,Perth,13.7335,-31.96015784525514,115.84656515380368
468,57140,Pingelly,1294.5721,-32.51994562679528,117.22205702577172
469,57210,Plantagenet,4876.682,-34.597205532577235,117.56197963125764
470,57280,Port Hedland,18417.0777,-20.929109469630998,118.67321322223947
471,57350,Quairading,2016.9268,-32.00480222253798,117.42345020030773
472,57420,Ravensthorpe,9841.7504,-33.61618205187206,120.13860867022215
473,57490,Rockingham,257.4979,-32.344169141198186,115.78900754713155
474,57630,Sandstone,32605.2912,-28.335900857558475,119.17312273885486
475,57700,Serpentine-Jarrahdale,901.2054,-32.344242401411584,116.03434173990082
476,57770,Shark Bay,24201.5491,-26.53670671742571,114.525144455058
477,57840,South Perth,19.8114,-31.997843661520257,115.8700255087035
478,57910,Stirling,104.7273,-31.88567985032093,115.8196376211133
479,57980,Subiaco,5.6182,-31.952009532932962,115.81872956227606
480,58050,Swan,1042.9936,-31.741263919754516,116.0674232172859
481,58190,Tammin,1101.692,-31.606662786397084,117.49500131009428
482,58260,Three Springs,2656.6928,-29.525753922346233,115.57732627080688
483,58330,Toodyay,1691.6485,-31.471079282481515,116.38066526546282
484,58400,Trayning,1651.2043,-31.143998266592348,117.80688362940327
485,58470,Upper Gascoyne,57809.8737,-24.72657583857869,116.35512128200551
486,58510,Victoria Park,17.9396,-31.979700298576695,115.9014807118026
487,58540,Victoria Plains,2551.0132,-31.01432160404646,116.31960450752253
488,58570,Vincent,11.3771,-31.93127701159698,115.85255529183902
489,58610,Wagin,1946.1763,-33.276680108085195,117.36993964530379
490,58680,Wandering,1903.8645,-32.5471693516555,116.58126572915917
491,58760,Wanneroo,683.2602,-31.61175146301629,115.7629598491388
492,58820,Waroona,832.2285,-32.85793894185496,115.92010605507494
493,58890,West Arthur,2831.8272,-33.457116736095394,116.73937787943231
494,59030,Westonia,3319.4496,-30.967563331939875,118.65625726583639
495,59100,Wickepin,2040.8985,-32.80695127721576,117.67177219520318
496,59170,Williams,2304.7119,-33.07141363917751,116.72809988596612
497,59250,Wiluna,181297.3382,-25.312014498362394,122.24508907807405
498,59310,Wongan-Ballidu,3365.0675,-30.71711732721204,116.84262469491247
499,59320,Woodanilling,1128.8348,-33.53365239994682,117.33807294375828
500,59330,Wyalkatchem,1594.4884,-31.18667559327059,117.43528746609421
501,59340,Wyndham-East Kimberley,112066.3217,-15.558958847356374,127.05169177789661
502,59350,Yalgoo,27949.4641,-28.565159607849537,117.05028339298939
503,59360,Yilgarn,30428.7648,-30.957334406286623,119.34199519848492
504,59370,York,2131.5916,-31.92636626799958,116.73543850414124
505,59499,No usual address (WA),0.0,0.0,0.0
506,59799,Migratory - Offshore - Shipping (WA),0.0,0.0,0.0
507,60210,Break O'Day,3523.8858,-41.42529504596939,148.04989952199253
508,60410,Brighton,171.1508,-42.71932780206309,147.26095841596816
509,60610,Burnie,610.9528,-41.21604475113563,145.80619905664912
510,60810,Central Coast (Tas.),933.0891,-41.28123461516421,146.04002867906536
511,61010,Central Highlands (Tas.),7982.4155,-42.212332603545164,146.64606342994918
512,61210,Circular Head,4897.6511,-41.07893565101771,145.01465981751147
513,61410,Clarence,377.9614,-42.837013460530386,147.4341402052992
514,61510,Derwent Valley,4108.1113,-42.81295666644889,146.42136179289912
515,61610,Devonport,111.259,-41.20868388120791,146.31190471812752
516,61810,Dorset,3230.5456,-41.07210843434459,147.70851957796629
517,62010,Flinders (Tas.),1996.6244,-40.11935416977833,148.09785400901347
518,62210,George Town,653.4308,-41.10216543072083,147.02602236647826
519,62410,Glamorgan-Spring Bay,2591.591,-42.26916987054396,147.9653515701881
520,62610,Glenorchy,121.1632,-42.83932216176027,147.21977313970837
521,62810,Hobart,77.8965,-42.897833394038635,147.28761332786428
522,63010,Huon Valley,5507.3541,-43.25141669462887,146.5971597675253
523,63210,Kentish,1156.1888,-41.45395625499723,146.18351977230415
524,63410,King Island,1095.7407,-39.86380076404174,143.98548599306474
525,63610,Kingborough,720.1093,-43.18918531478368,147.26233944378006
526,63810,Latrobe (Tas.),600.4619,-41.243970129250755,146.560026754645
527,64010,Launceston,1413.6306,-41.36062127234812,147.3058197969527
528,64210,Meander Valley,3330.8146,-41.626641347398845,146.48478681099857
529,64610,Northern Midlands,5135.2505,-41.84017397054402,147.4601731893485
530,64810,Sorell,583.7723,-42.77866697225245,147.6961506884253
531,65010,Southern Midlands,2615.4935,-42.43454927127603,147.4005556616801
532,65210,Tasman,660.3947,-43.05467412449944,147.83465721711656
533,65410,Waratah-Wynyard,3535.9075,-41.38322844753551,145.49538615983798
534,65610,West Coast,9583.5388,-42.29817504670739,145.637324287131
535,65810,West Tamar,691.1537,-41.28162856545986,146.86440239244513
536,69499,No usual address (Tas.),0.0,0.0,0.0
537,69799,Migratory - Offshore - Shipping (Tas.),0.0,0.0,0.0
538,70200,Alice Springs,327.7132,-23.73505937766741,133.85477694526264
539,70420,Barkly,322710.4145,-19.44407458683211,135.0847290821921
540,70540,Belyuen,41.4054,-12.53817075269162,130.68318924694316
541,70620,Central Desert,281338.022,-21.489803422667,132.4150166921068
542,70700,Coomalie,2056.0547,-13.125738305668174,131.08286276125128
543,71000,Darwin,111.2614,-12.398400651864323,130.88701824046734
544,71150,Darwin Waterfront Precinct,0.7447,-12.469264500880739,130.84672085637158
545,71300,East Arnhem,33309.9334,-12.933229937217245,135.7455392517816
546,72200,Katherine,7416.6444,-14.690158844400788,132.1950905987114
547,72300,Litchfield,2903.3391,-12.537438070749566,131.1217920875646
548,72330,MacDonnell,268339.0281,-24.63728262879182,133.16155332851724
549,72800,Palmerston,52.6559,-12.502505532985195,130.9791854897338
550,73600,Roper Gulf,185213.4546,-15.434851896160195,134.65119197986695
551,74050,Tiwi Islands,7483.1661,-11.559831573134748,130.81630485645033
552,74550,Victoria Daly,153287.3722,-16.24958441602167,130.6586324021987
553,74560,Wagait,5.6628,-12.44123691373582,130.74978878183933
554,74660,West Arnhem,49675.0342,-12.50804432373627,133.258522127985
555,74680,West Daly,14069.698,-14.222993447721947,130.06034810718373
556,79399,Unincorporated NT,19792.8884,-13.112350429635152,131.1871841421436
557,79499,No usual address (NT),0.0,0.0,0.0
558,79799,Migratory - Offshore - Shipping (NT),0.0,0.0,0.0
559,89399,Unincorporated ACT,2358.133,-35.48869680789089,149.00250087629084
560,89499,No usual address (ACT),0.0,0.0,0.0
561,89799,Migratory - Offshore - Shipping (ACT),0.0,0.0,0.0
562,99399,Unincorp. Other Territories,105.8806,-33.01264018322441,156.73170604163326
563,99499,No usual address (OT),0.0,0.0,0.0
564,99799,Migratory - Offshore - Shipping (OT),0.0,0.0,0.0
565,ZZZZZ,Outside Australia,0.0,0.0,0.0
